{"type":"FeatureCollection", "features": [
{"type":"Feature","geometry":{"type":"Point","coordinates":[-120.59766126071092,37.35396209692916]},"properties":{"population":29197,"geoid":"16000US0603162","name":"Atwater, CA"}},
{"type":"Feature","geometry":{"type":"Point","coordinates":[-120.70370705340937,37.4519167751291]},"properties":{"population":401,"geoid":"16000US0603708","name":"Ballico, CA"}},
{"type":"Feature","geometry":{"type":"Point","coordinates":[-120.41767576073842,37.29660085506721]},"properties":{"population":157,"geoid":"16000US0604632","name":"Bear Creek, CA"}},
{"type":"Feature","geometry":{"type":"Point","coordinates":[-120.65568903327194,37.421029802734346]},"properties":{"population":356,"geoid":"16000US0617078","name":"Cressey, CA"}},
{"type":"Feature","geometry":{"type":"Point","coordinates":[-120.77590014693044,37.43059928174909]},"properties":{"population":11735,"geoid":"16000US0618464","name":"Delhi, CA"}},
{"type":"Feature","geometry":{"type":"Point","coordinates":[-120.63384450279179,36.98542338250529]},"properties":{"population":5272,"geoid":"16000US0619612","name":"Dos Palos, CA"}},
{"type":"Feature","geometry":{"type":"Point","coordinates":[-120.63944550029049,37.04672749117448]},"properties":{"population":242,"geoid":"16000US0619654","name":"Dos Palos Y, CA"}},
{"type":"Feature","geometry":{"type":"Point","coordinates":[-120.49855084801933,37.13237613125273]},"properties":{"population":328,"geoid":"16000US0622286","name":"El Nido, CA"}},
{"type":"Feature","geometry":{"type":"Point","coordinates":[-120.53211517791895,37.32771780258572]},"properties":{"population":7314,"geoid":"16000US0625488","name":"Franklin, CA"}},
{"type":"Feature","geometry":{"type":"Point","coordinates":[-120.99516226789581,37.25452875427184]},"properties":{"population":5774,"geoid":"16000US0631568","name":"Gustine, CA"}},
{"type":"Feature","geometry":{"type":"Point","coordinates":[-120.85042595456972,37.404543250388876]},"properties":{"population":5846,"geoid":"16000US0633861","name":"Hilmar-Irwin, CA"}},
{"type":"Feature","geometry":{"type":"Point","coordinates":[-120.2540024539273,37.228814666821265]},"properties":{"population":1726,"geoid":"16000US0641040","name":"Le Grand, CA"}},
{"type":"Feature","geometry":{"type":"Point","coordinates":[-120.72394913482424,37.387366576340966]},"properties":{"population":13997,"geoid":"16000US0642006","name":"Livingston, CA"}},
{"type":"Feature","geometry":{"type":"Point","coordinates":[-120.84065934365431,37.063000901575926]},"properties":{"population":38119,"geoid":"16000US0644028","name":"Los Banos, CA"}},
{"type":"Feature","geometry":{"type":"Point","coordinates":[-120.58674096150992,37.31454623817787]},"properties":{"population":4137,"geoid":"16000US0645006","name":"McSwain, CA"}},
{"type":"Feature","geometry":{"type":"Point","coordinates":[-120.47721093395954,37.305583722519245]},"properties":{"population":82289,"geoid":"16000US0646898","name":"Merced, CA"}},
{"type":"Feature","geometry":{"type":"Point","coordinates":[-120.32070452160075,37.28923010979195]},"properties":{"population":4418,"geoid":"16000US0657582","name":"Planada, CA"}},
{"type":"Feature","geometry":{"type":"Point","coordinates":[-121.01536531492468,37.10143602129196]},"properties":{"population":2508,"geoid":"16000US0670028","name":"Santa Nella, CA"}},
{"type":"Feature","geometry":{"type":"Point","coordinates":[-120.43849876964498,37.52166216681138]},"properties":{"population":101,"geoid":"16000US0672408","name":"Snelling, CA"}},
{"type":"Feature","geometry":{"type":"Point","coordinates":[-120.64670772438225,36.970725635307055]},"properties":{"population":1682,"geoid":"16000US0672954","name":"South Dos Palos, CA"}},
{"type":"Feature","geometry":{"type":"Point","coordinates":[-120.84966420367257,37.324664542137576]},"properties":{"population":331,"geoid":"16000US0674144","name":"Stevinson, CA"}},
{"type":"Feature","geometry":{"type":"Point","coordinates":[-120.37886711879881,37.296507567291435]},"properties":{"population":63,"geoid":"16000US0680882","name":"Tuttle, CA"}},
{"type":"Feature","geometry":{"type":"Point","coordinates":[-120.41902976766836,37.366591365412894]},"properties":{"population":0,"geoid":"16000US0681312","name":"University of California-Merced, CA"}},
{"type":"Feature","geometry":{"type":"Point","coordinates":[-120.92345990327796,37.08750216230455]},"properties":{"population":216,"geoid":"16000US0683108","name":"Volta, CA"}},
{"type":"Feature","geometry":{"type":"Point","coordinates":[-120.61736496754747,37.385427435013064]},"properties":{"population":11761,"geoid":"16000US0686076","name":"Winton, CA"}}
]}