{"type":"FeatureCollection", "features": [
{"type":"Feature","geometry":{"type":"Point","coordinates":[-121.27989144876811,38.17352869250068]},"properties":{"population":294,"geoid":"16000US0600156","name":"Acampo, CA"}},
{"type":"Feature","geometry":{"type":"Point","coordinates":[-121.26244913430239,37.97955862995742]},"properties":{"population":8774,"geoid":"16000US0603209","name":"August, CA"}},
{"type":"Feature","geometry":{"type":"Point","coordinates":[-121.26745487172707,38.214149986114556]},"properties":{"population":2642,"geoid":"16000US0614708","name":"Collierville, CA"}},
{"type":"Feature","geometry":{"type":"Point","coordinates":[-121.3408226159,37.96870178733583]},"properties":{"population":9846,"geoid":"16000US0616651","name":"Country Club, CA"}},
{"type":"Feature","geometry":{"type":"Point","coordinates":[-121.15505999481805,38.20958560667689]},"properties":{"population":2629,"geoid":"16000US0619440","name":"Dogtown, CA"}},
{"type":"Feature","geometry":{"type":"Point","coordinates":[-120.99756408199092,37.793870314236145]},"properties":{"population":7509,"geoid":"16000US0622790","name":"Escalon, CA"}},
{"type":"Feature","geometry":{"type":"Point","coordinates":[-121.00436814914354,37.929866204974445]},"properties":{"population":89,"geoid":"16000US0623630","name":"Farmington, CA"}},
{"type":"Feature","geometry":{"type":"Point","coordinates":[-121.28030979179835,37.8802644471115]},"properties":{"population":3857,"geoid":"16000US0626028","name":"French Camp, CA"}},
{"type":"Feature","geometry":{"type":"Point","coordinates":[-121.22961056023277,37.963697447276154]},"properties":{"population":10701,"geoid":"16000US0628182","name":"Garden Acres, CA"}},
{"type":"Feature","geometry":{"type":"Point","coordinates":[-121.2457802414263,37.929079431629795]},"properties":{"population":3665,"geoid":"16000US0638065","name":"Kennedy, CA"}},
{"type":"Feature","geometry":{"type":"Point","coordinates":[-121.31302674442078,37.8090130571677]},"properties":{"population":21393,"geoid":"16000US0640704","name":"Lathrop, CA"}},
{"type":"Feature","geometry":{"type":"Point","coordinates":[-121.33380002864413,38.00548731261881]},"properties":{"population":4768,"geoid":"16000US0641558","name":"Lincoln Village, CA"}},
{"type":"Feature","geometry":{"type":"Point","coordinates":[-121.09936397483952,38.01857004808156]},"properties":{"population":1790,"geoid":"16000US0641670","name":"Linden, CA"}},
{"type":"Feature","geometry":{"type":"Point","coordinates":[-121.15543924012023,38.150840740063835]},"properties":{"population":3390,"geoid":"16000US0642104","name":"Lockeford, CA"}},
{"type":"Feature","geometry":{"type":"Point","coordinates":[-121.2814805901601,38.12576911763395]},"properties":{"population":65006,"geoid":"16000US0642202","name":"Lodi, CA"}},
{"type":"Feature","geometry":{"type":"Point","coordinates":[-121.22658236004749,37.79365677859715]},"properties":{"population":77073,"geoid":"16000US0645484","name":"Manteca, CA"}},
{"type":"Feature","geometry":{"type":"Point","coordinates":[-121.24554882072687,38.038630248000636]},"properties":{"population":4068,"geoid":"16000US0649180","name":"Morada, CA"}},
{"type":"Feature","geometry":{"type":"Point","coordinates":[-121.54526374888907,37.774018156669065]},"properties":{"population":15645,"geoid":"16000US0649582","name":"Mountain House, CA"}},
{"type":"Feature","geometry":{"type":"Point","coordinates":[-121.0439403436403,37.97630090866886]},"properties":{"population":604,"geoid":"16000US0656798","name":"Peters, CA"}},
{"type":"Feature","geometry":{"type":"Point","coordinates":[-121.1308994441827,37.74146808038336]},"properties":{"population":15367,"geoid":"16000US0661026","name":"Ripon, CA"}},
{"type":"Feature","geometry":{"type":"Point","coordinates":[-121.31213163044376,37.97671761856202]},"properties":{"population":306283,"geoid":"16000US0675000","name":"Stockton, CA"}},
{"type":"Feature","geometry":{"type":"Point","coordinates":[-121.28311271427982,37.9139368657286]},"properties":{"population":951,"geoid":"16000US0677595","name":"Taft Mosswood, CA"}},
{"type":"Feature","geometry":{"type":"Point","coordinates":[-121.48955819071297,38.11525656317222]},"properties":{"population":411,"geoid":"16000US0678232","name":"Terminous, CA"}},
{"type":"Feature","geometry":{"type":"Point","coordinates":[-121.42488381627558,38.2309062910946]},"properties":{"population":1038,"geoid":"16000US0678568","name":"Thornton, CA"}},
{"type":"Feature","geometry":{"type":"Point","coordinates":[-121.44388842798111,37.72602458974601]},"properties":{"population":88806,"geoid":"16000US0680238","name":"Tracy, CA"}},
{"type":"Feature","geometry":{"type":"Point","coordinates":[-121.19876045414192,38.13846535398546]},"properties":{"population":444,"geoid":"16000US0682562","name":"Victor, CA"}},
{"type":"Feature","geometry":{"type":"Point","coordinates":[-121.18455107300592,38.03645289411108]},"properties":{"population":719,"geoid":"16000US0683626","name":"Waterloo, CA"}},
{"type":"Feature","geometry":{"type":"Point","coordinates":[-121.31132260152921,38.16920471671582]},"properties":{"population":3865,"geoid":"16000US0686230","name":"Woodbridge, CA"}}
]}