{"type":"FeatureCollection", "features": [
{"type":"Feature","geometry":{"type":"Point","coordinates":[-120.1156050079776,34.63403661477241]},"properties":{"population":473,"geoid":"16000US0603694","name":"Ballard, CA"}},
{"type":"Feature","geometry":{"type":"Point","coordinates":[-120.19441818801283,34.61529071559392]},"properties":{"population":5092,"geoid":"16000US0608758","name":"Buellton, CA"}},
{"type":"Feature","geometry":{"type":"Point","coordinates":[-120.53107136685372,34.837588496801004]},"properties":{"population":111,"geoid":"16000US0611754","name":"Casmalia, CA"}},
{"type":"Feature","geometry":{"type":"Point","coordinates":[-119.61480469340907,34.93124463743456]},"properties":{"population":9,"geoid":"16000US0617727","name":"Cuyama, CA"}},
{"type":"Feature","geometry":{"type":"Point","coordinates":[-120.3140763470406,34.886888703361855]},"properties":{"population":160,"geoid":"16000US0629070","name":"Garey, CA"}},
{"type":"Feature","geometry":{"type":"Point","coordinates":[-119.85971009955759,34.43600294712089]},"properties":{"population":30790,"geoid":"16000US0630378","name":"Goleta, CA"}},
{"type":"Feature","geometry":{"type":"Point","coordinates":[-120.57335289909004,34.96085466392033]},"properties":{"population":7350,"geoid":"16000US0631414","name":"Guadalupe, CA"}},
{"type":"Feature","geometry":{"type":"Point","coordinates":[-119.85758396949839,34.414212974625116]},"properties":{"population":27690,"geoid":"16000US0636868","name":"Isla Vista, CA"}},
{"type":"Feature","geometry":{"type":"Point","coordinates":[-120.47135264950545,34.661953879737254]},"properties":{"population":43511,"geoid":"16000US0642524","name":"Lompoc, CA"}},
{"type":"Feature","geometry":{"type":"Point","coordinates":[-120.2783239681442,34.73748287698682]},"properties":{"population":1623,"geoid":"16000US0643252","name":"Los Alamos, CA"}},
{"type":"Feature","geometry":{"type":"Point","coordinates":[-120.1180191445348,34.66474497337708]},"properties":{"population":831,"geoid":"16000US0644168","name":"Los Olivos, CA"}},
{"type":"Feature","geometry":{"type":"Point","coordinates":[-119.71258067964925,34.45336578299301]},"properties":{"population":2755,"geoid":"16000US0648147","name":"Mission Canyon, CA"}},
{"type":"Feature","geometry":{"type":"Point","coordinates":[-120.44042468784488,34.68608307515726]},"properties":{"population":3796,"geoid":"16000US0648186","name":"Mission Hills, CA"}},
{"type":"Feature","geometry":{"type":"Point","coordinates":[-119.62864726154926,34.43798962803106]},"properties":{"population":8611,"geoid":"16000US0648844","name":"Montecito, CA"}},
{"type":"Feature","geometry":{"type":"Point","coordinates":[-119.68076211748831,34.94214813274599]},"properties":{"population":763,"geoid":"16000US0651028","name":"New Cuyama, CA"}},
{"type":"Feature","geometry":{"type":"Point","coordinates":[-120.42683943360787,34.86676965452423]},"properties":{"population":30493,"geoid":"16000US0654120","name":"Orcutt, CA"}},
{"type":"Feature","geometry":{"type":"Point","coordinates":[-119.71345578971047,34.40009150238902]},"properties":{"population":91325,"geoid":"16000US0669070","name":"Santa Barbara, CA"}},
{"type":"Feature","geometry":{"type":"Point","coordinates":[-120.44337508385856,34.93345371369897]},"properties":{"population":105483,"geoid":"16000US0669196","name":"Santa Maria, CA"}},
{"type":"Feature","geometry":{"type":"Point","coordinates":[-120.09435286182521,34.615072495975454]},"properties":{"population":4401,"geoid":"16000US0670182","name":"Santa Ynez, CA"}},
{"type":"Feature","geometry":{"type":"Point","coordinates":[-120.29422588163514,34.862172847268376]},"properties":{"population":148,"geoid":"16000US0672086","name":"Sisquoc, CA"}},
{"type":"Feature","geometry":{"type":"Point","coordinates":[-120.14016489911431,34.59351383807939]},"properties":{"population":5734,"geoid":"16000US0672576","name":"Solvang, CA"}},
{"type":"Feature","geometry":{"type":"Point","coordinates":[-119.58925864675723,34.425405114423235]},"properties":{"population":923,"geoid":"16000US0675714","name":"Summerland, CA"}},
{"type":"Feature","geometry":{"type":"Point","coordinates":[-119.556771669984,34.423617587688575]},"properties":{"population":1735,"geoid":"16000US0679529","name":"Toro Canyon, CA"}},
{"type":"Feature","geometry":{"type":"Point","coordinates":[-120.518173661129,34.74830570150327]},"properties":{"population":3379,"geoid":"16000US0682072","name":"Vandenberg AFB, CA"}},
{"type":"Feature","geometry":{"type":"Point","coordinates":[-120.46232767727194,34.711137501190514]},"properties":{"population":7861,"geoid":"16000US0682086","name":"Vandenberg Village, CA"}}
]}