{"type":"FeatureCollection", "features": [
{"type":"Feature","geometry":{"type":"Point","coordinates":[-122.85023771221192,38.31828524517388]},"properties":{"population":387,"geoid":"16000US0607036","name":"Bloomfield, CA"}},
{"type":"Feature","geometry":{"type":"Point","coordinates":[-122.97116459515526,38.348841793773694]},"properties":{"population":473,"geoid":"16000US0607246","name":"Bodega, CA"}},
{"type":"Feature","geometry":{"type":"Point","coordinates":[-123.0324159114381,38.320227752606556]},"properties":{"population":733,"geoid":"16000US0607260","name":"Bodega Bay, CA"}},
{"type":"Feature","geometry":{"type":"Point","coordinates":[-122.48873849853364,38.31263287362977]},"properties":{"population":7863,"geoid":"16000US0607848","name":"Boyes Hot Springs, CA"}},
{"type":"Feature","geometry":{"type":"Point","coordinates":[-123.07185944617139,38.374451912281444]},"properties":{"population":0,"geoid":"16000US0611376","name":"Carmet, CA"}},
{"type":"Feature","geometry":{"type":"Point","coordinates":[-123.09783636808946,38.526494901121]},"properties":{"population":288,"geoid":"16000US0612146","name":"Cazadero, CA"}},
{"type":"Feature","geometry":{"type":"Point","coordinates":[-123.01520211550314,38.79606278337194]},"properties":{"population":8798,"geoid":"16000US0614190","name":"Cloverdale, CA"}},
{"type":"Feature","geometry":{"type":"Point","coordinates":[-122.70914364930256,38.32789188104769]},"properties":{"population":7470,"geoid":"16000US0616560","name":"Cotati, CA"}},
{"type":"Feature","geometry":{"type":"Point","coordinates":[-122.50651926234461,38.33388732210872]},"properties":{"population":1351,"geoid":"16000US0621894","name":"Eldridge, CA"}},
{"type":"Feature","geometry":{"type":"Point","coordinates":[-122.49154432818335,38.29746473939196]},"properties":{"population":3424,"geoid":"16000US0622510","name":"El Verano, CA"}},
{"type":"Feature","geometry":{"type":"Point","coordinates":[-122.48713752883715,38.32750432880259]},"properties":{"population":4697,"geoid":"16000US0623973","name":"Fetters Hot Springs-Agua Caliente, CA"}},
{"type":"Feature","geometry":{"type":"Point","coordinates":[-122.88988452070058,38.48249118417066]},"properties":{"population":3685,"geoid":"16000US0624960","name":"Forestville, CA"}},
{"type":"Feature","geometry":{"type":"Point","coordinates":[-122.77341680998536,38.493709296847356]},"properties":{"population":566,"geoid":"16000US0628014","name":"Fulton, CA"}},
{"type":"Feature","geometry":{"type":"Point","coordinates":[-122.90342547094093,38.71731410386095]},"properties":{"population":928,"geoid":"16000US0629420","name":"Geyserville, CA"}},
{"type":"Feature","geometry":{"type":"Point","coordinates":[-122.54128575631592,38.356355606179136]},"properties":{"population":727,"geoid":"16000US0630028","name":"Glen Ellen, CA"}},
{"type":"Feature","geometry":{"type":"Point","coordinates":[-122.86598807283394,38.43751757027892]},"properties":{"population":1877,"geoid":"16000US0630812","name":"Graton, CA"}},
{"type":"Feature","geometry":{"type":"Point","coordinates":[-122.98940530003556,38.51371638372012]},"properties":{"population":4808,"geoid":"16000US0631470","name":"Guerneville, CA"}},
{"type":"Feature","geometry":{"type":"Point","coordinates":[-122.8644428949489,38.62298074405894]},"properties":{"population":11802,"geoid":"16000US0633056","name":"Healdsburg, CA"}},
{"type":"Feature","geometry":{"type":"Point","coordinates":[-123.12017629693796,38.45103170320986]},"properties":{"population":32,"geoid":"16000US0637274","name":"Jenner, CA"}},
{"type":"Feature","geometry":{"type":"Point","coordinates":[-122.53875331285859,38.415407336756516]},"properties":{"population":800,"geoid":"16000US0638156","name":"Kenwood, CA"}},
{"type":"Feature","geometry":{"type":"Point","coordinates":[-122.75360181899597,38.512972351496835]},"properties":{"population":8926,"geoid":"16000US0640426","name":"Larkfield-Wikiup, CA"}},
{"type":"Feature","geometry":{"type":"Point","coordinates":[-123.01470574079308,38.468338130853404]},"properties":{"population":1156,"geoid":"16000US0648928","name":"Monte Rio, CA"}},
{"type":"Feature","geometry":{"type":"Point","coordinates":[-122.93495672080772,38.4003800064348]},"properties":{"population":833,"geoid":"16000US0653266","name":"Occidental, CA"}},
{"type":"Feature","geometry":{"type":"Point","coordinates":[-122.67056548876172,38.300598516766435]},"properties":{"population":2961,"geoid":"16000US0656476","name":"Penngrove, CA"}},
{"type":"Feature","geometry":{"type":"Point","coordinates":[-122.62676024970202,38.2422499750142]},"properties":{"population":60635,"geoid":"16000US0656784","name":"Petaluma, CA"}},
{"type":"Feature","geometry":{"type":"Point","coordinates":[-122.69639314550773,38.348046708344285]},"properties":{"population":42694,"geoid":"16000US0662546","name":"Rohnert Park, CA"}},
{"type":"Feature","geometry":{"type":"Point","coordinates":[-123.059328878875,38.346212276699795]},"properties":{"population":20,"geoid":"16000US0664252","name":"Salmon Creek, CA"}},
{"type":"Feature","geometry":{"type":"Point","coordinates":[-122.69996148879302,38.449279306309634]},"properties":{"population":181038,"geoid":"16000US0670098","name":"Santa Rosa, CA"}},
{"type":"Feature","geometry":{"type":"Point","coordinates":[-123.45269460374504,38.716616021610676]},"properties":{"population":1161,"geoid":"16000US0670712","name":"Sea Ranch, CA"}},
{"type":"Feature","geometry":{"type":"Point","coordinates":[-122.82771274421178,38.400030864350356]},"properties":{"population":7666,"geoid":"16000US0670770","name":"Sebastopol, CA"}},
{"type":"Feature","geometry":{"type":"Point","coordinates":[-123.07314806864854,38.38367127871763]},"properties":{"population":82,"geoid":"16000US0671000","name":"Sereno del Mar, CA"}},
{"type":"Feature","geometry":{"type":"Point","coordinates":[-122.45996141952564,38.29030409209519]},"properties":{"population":11074,"geoid":"16000US0672646","name":"Sonoma, CA"}},
{"type":"Feature","geometry":{"type":"Point","coordinates":[-122.49819770325166,38.25775508236191]},"properties":{"population":1564,"geoid":"16000US0678126","name":"Temelec, CA"}},
{"type":"Feature","geometry":{"type":"Point","coordinates":[-123.25878810258823,38.54108821127392]},"properties":{"population":149,"geoid":"16000US0678715","name":"Timber Cove, CA"}},
{"type":"Feature","geometry":{"type":"Point","coordinates":[-122.91473224678955,38.3245601092729]},"properties":{"population":148,"geoid":"16000US0681778","name":"Valley Ford, CA"}},
{"type":"Feature","geometry":{"type":"Point","coordinates":[-122.8051261660832,38.54435005728217]},"properties":{"population":27506,"geoid":"16000US0685922","name":"Windsor, CA"}}
]}